{"type": "FeatureCollection", "crs": {"type": "name", "properties": {"name": "EPSG:4326"}}, "features": [{"type": "Feature", "properties": {"city": 90, "name": "Allandale Waterfront GO Station", "transit_mode": 1, "is_main": false, "pk": "23"}, "geometry": {"type": "Point", "coordinates": [-79.68598, 44.373401]}}, {"type": "Feature", "properties": {"city": 90, "name": "Barrie Bus Terminal", "transit_mode": 3, "is_main": true, "pk": "24"}, "geometry": {"type": "Point", "coordinates": [-79.690978, 44.387776]}}, {"type": "Feature", "properties": {"city": 90, "name": "Barrie South GO", "transit_mode": 3, "is_main": false, "pk": "25"}, "geometry": {"type": "Point", "coordinates": [-79.627439, 44.351121]}}, {"type": "Feature", "properties": {"city": 88, "name": "Sudbury Ontario Northland Bus Depot", "transit_mode": 3, "is_main": true, "pk": "26"}, "geometry": {"type": "Point", "coordinates": [-80.938205, 46.504838]}}, {"type": "Feature", "properties": {"city": 88, "name": "Sudbury Train Station", "transit_mode": 1, "is_main": false, "pk": "27"}, "geometry": {"type": "Point", "coordinates": [-80.991904, 46.487365]}}, {"type": "Feature", "properties": {"city": 93, "name": "Hamilton GO Centre", "transit_mode": 3, "is_main": true, "pk": "28"}, "geometry": {"type": "Point", "coordinates": [-79.869159, 43.253217]}}, {"type": "Feature", "properties": {"city": 93, "name": "West Harbour GO Station", "transit_mode": 1, "is_main": false, "pk": "29"}, "geometry": {"type": "Point", "coordinates": [-79.866243, 43.266532]}}, {"type": "Feature", "properties": {"city": 93, "name": "McMaster University GO Bus Terminal", "transit_mode": 1, "is_main": false, "pk": "30"}, "geometry": {"type": "Point", "coordinates": [-79.922791, 43.261662]}}, {"type": "Feature", "properties": {"city": 85, "name": "Maynooth Greyhound Bus Stop", "transit_mode": 2, "is_main": true, "pk": "31"}, "geometry": {"type": "Point", "coordinates": [-77.937785, 45.231021]}}, {"type": "Feature", "properties": {"city": 94, "name": "Charles Street Terminal", "transit_mode": 3, "is_main": true, "pk": "32"}, "geometry": {"type": "Point", "coordinates": [-80.492256, 43.449564]}}, {"type": "Feature", "properties": {"city": 94, "name": "Kitchener GO Station", "transit_mode": 1, "is_main": false, "pk": "33"}, "geometry": {"type": "Point", "coordinates": [-80.493169, 43.455636]}}, {"type": "Feature", "properties": {"city": 95, "name": "London Greyhound Station", "transit_mode": 2, "is_main": true, "pk": "34"}, "geometry": {"type": "Point", "coordinates": [-81.250705, 42.980546]}}, {"type": "Feature", "properties": {"city": 95, "name": "London Train Station", "transit_mode": 1, "is_main": false, "pk": "35"}, "geometry": {"type": "Point", "coordinates": [-81.24674, 42.981324]}}, {"type": "Feature", "properties": {"city": 86, "name": "North Bay Ontario Northland Bus Station", "transit_mode": 3, "is_main": true, "pk": "36"}, "geometry": {"type": "Point", "coordinates": [-79.438546, 46.313901]}}, {"type": "Feature", "properties": {"city": 87, "name": "Ottawa Central Station", "transit_mode": 3, "is_main": true, "pk": "37"}, "geometry": {"type": "Point", "coordinates": [-75.695007, 45.408603]}}, {"type": "Feature", "properties": {"city": 87, "name": "Ottawa Train Station", "transit_mode": 1, "is_main": false, "pk": "38"}, "geometry": {"type": "Point", "coordinates": [-75.651686, 45.416439]}}, {"type": "Feature", "properties": {"city": 91, "name": "Peterborough Greyhound Station", "transit_mode": 2, "is_main": true, "pk": "39"}, "geometry": {"type": "Point", "coordinates": [-78.323045, 44.304691]}}, {"type": "Feature", "properties": {"city": 91, "name": "Peterborough GO Bus Stop", "transit_mode": 1, "is_main": false, "pk": "40"}, "geometry": {"type": "Point", "coordinates": [-78.322419, 44.304604]}}, {"type": "Feature", "properties": {"city": 92, "name": "Port Colborne City Hall Welland Transit Stop", "transit_mode": 1, "is_main": true, "pk": "41"}, "geometry": {"type": "Point", "coordinates": [-79.252392, 42.885129]}}, {"type": "Feature", "properties": {"city": 92, "name": "King and Clarence Megabus Stop", "transit_mode": 2, "is_main": false, "pk": "42"}, "geometry": {"type": "Point", "coordinates": [-79.251721, 42.886312]}}, {"type": "Feature", "properties": {"city": 89, "name": "Union Station", "transit_mode": 3, "is_main": true, "pk": "43"}, "geometry": {"type": "Point", "coordinates": [-79.380552, 43.645265]}}, {"type": "Feature", "properties": {"city": 89, "name": "Yorkdale Bus Terminal", "transit_mode": 3, "is_main": false, "pk": "44"}, "geometry": {"type": "Point", "coordinates": [-79.449055, 43.725101]}}, {"type": "Feature", "properties": {"city": 89, "name": "Toronto Greyhound Station", "transit_mode": 2, "is_main": false, "pk": "45"}, "geometry": {"type": "Point", "coordinates": [-79.384396, 43.646652]}}, {"type": "Feature", "properties": {"city": 89, "name": "Scarborough Town Centre Bus Terminal", "transit_mode": 3, "is_main": false, "pk": "46"}, "geometry": {"type": "Point", "coordinates": [-79.254744, 43.775108]}}]}